{
  "users": [
    {
      "user_id": "u_78f3849d",
      "name": "disha ",
      "phone": "+8077865284",
      "password_hash": "$2b$10$HMwZYY9viYYxC0Ahafo4luotg6RoUK6H8XZG.6pRbwqqBG5QKbjfe",
      "role": "citizen",
      "latitude": 30.267423708613315,
      "longitude": 77.989029,
      "is_active": true,
      "created_at": "2026-01-10T19:42:23.643675Z"
    },
    {
      "user_id": "u_3ecd3e3c",
      "name": "isha",
      "phone": "+918077865281",
      "password_hash": "$2b$12$GFIcehmfMm0mb1oV7441qOwZanG1SvZfrexMWvEM5mcXtgpgW3Wq2",
      "role": "authority",
      "latitude": 30.267420895170734,
      "longitude": 77.98902739686865,
      "is_active": true,
      "created_at": "2026-01-10T19:44:21.822076Z",
      "organization_name": "Dehradun police",
      "designation": "inspector"
    },
    {
      "user_id": "u_1913f280",
      "name": "kirti ",
      "phone": "+91 1234567890",
      "password_hash": "$2b$10$D4Eritstu45ujYJVv7JgeuZ7QaNasCzio1UD9TqH2I/Rpsv6GAMtu",
      "role": "citizen",
      "latitude": 30.275431364806867,
      "longitude": 77.98919651802575,
      "is_active": true,
      "created_at": "2026-01-11T09:02:52.576738Z"
    },
    {
      "user_id": "u_e301a75b",
      "name": "kirti ",
      "phone": "+91 1234570380",
      "password_hash": "$2b$10$9Ri72xxpAdgIIwMwbx15bOoRvj4WeRIJlJVig9cTaVY6eHeNNtOhm",
      "role": "citizen",
      "latitude": 30.275431364806867,
      "longitude": 77.98919651802575,
      "is_active": true,
      "created_at": "2026-01-11T09:03:25.329645Z"
    },
    {
      "user_id": "u_fad05ea7",
      "name": "johnnnnnn",
      "phone": "+9876543213",
      "password_hash": "$2b$10$VpkHUBmz.EGVijKLugadpOUmciyKG1RIS1e9Jsb8sQjCbNCvuze7u",
      "role": "citizen",
      "latitude": 30.275431364806867,
      "longitude": 77.98919651802575,
      "is_active": true,
      "created_at": "2026-01-11T09:04:08.406088Z"
    },
    {
      "user_id": "u_22ed09c0",
      "name": "Doee",
      "phone": "+99999999",
      "password_hash": "$2b$10$MVB/IjCOjgYlVC73/Qo9H.oTlXjWrSmQXGfQ/GAIZHDpJDkZZFjy2",
      "role": "citizen",
      "latitude": 30.275262279129496,
      "longitude": 77.98938156136794,
      "is_active": true,
      "created_at": "2026-01-11T09:38:57.599857Z"
    },
    {
      "user_id": "u_165f034d",
      "name": "Sah",
      "phone": "+1234509876",
      "password_hash": "$2b$10$hCiRkvbG6Dnbdb7mhMKIT.rFP9zEmM0A53IGW8zo5sw0FVujBV12O",
      "role": "citizen",
      "latitude": 30.275353,
      "longitude": 77.989239,
      "is_active": true,
      "created_at": "2026-01-11T13:58:04.237057Z"
    }
  ]
}